Time of Receipt (s),Time of Transmission (s),Time of Data (s),Day of Year,Year,Packet Type,Number of Data Elements,Packet Source,Unique ID Number,Message Type,Version,NAVSSI Status,INS Status,GPS 1 Status,GPS 2 Status,North RMS Error (ft),East RMS Error (ft),Vertical Position RMS Error (ft),Radial Error Estimate (ft),North Velocity RMS Error (ft/s),East Velocity RMS Error (ft/s), Down Velocity RMS Error (ft/s),Roll RMS Error (degrees),Pitch RMS Error (degrees),Heading RMS Error (degrees),Time of Gyro Reset (s),Latitude (degrees),Longitude (degrees),Vertical Position (ft),Velocity North (kn),Velocity East (kn),Velocity Down (kn),Acceleration North (ft/s^2),Acceleration East (ft/s^2),Acceleration Down (ft/s^2),Integral of Velocity North (ft),Integral of Velocity East (ft),Course (degrees),Speed Through The Water (kn),Calibration for Speed Log (kn),Depth Below Keel (ft),Ocean Current North (kn), Ocean Current East(kn),Roll (degrees),Pitch (degrees),Heading (degrees),Roll Rate (degrees/s),Pitch Rate (degrees/s),Heading Rate (degrees/s),Roll Acceleration (degrees/s^2),Pitch Acceleration (degrees/s^2),Heading Acceleration (degrees/s^2),OSD_Status,Own Ship Distance (NM),Athwartships Speed (kn),Vertical Speed (kn),True Wind Status,True Wind Speed (kn),True Wind Direction (degrees),True Wind Sensor,Apparent Wind Status,Apparent Wind Speed (kn),Apparent Wind Direction (degrees),Apparent Wind Sensor,MV Status,Magnetic Variation (radians),Checksum
1537212146.6864,69746.7013274,69746.7013274,260,2018,2,55,1,9,1,6,4294967296,0,0,0,0,0,0,0,0,0,0,0,0,0,0,0.00065,0.00002,0,5.2899999619,0.3600000143,0,0,0,0,0,0,3.9300000668,5.3000001907,0,0,0,0,0,0,3.9300000668,0,0,0.1599999964,0,0,0,0,0,0,0,0,0,0,0,0,5.3000001907,0,0,0,0,2627217423
1537212146.6865,69746.7013274,69746.7013274,260,2018,2,55,1,9,1,6,4294967296,0,0,0,0,0,0,0,0,0,0,0,0,0,0,0.00065,0.00002,0,5.2899999619,0.3600000143,0,0,0,0,0,0,3.9300000668,5.3000001907,0,0,0,0,0,0,3.9300000668,0,0,0.1599999964,0,0,0,0,0,0,0,0,0,0,0,0,5.3000001907,0,0,0,0,2627217423
1537212147.7004,69747.7153291,69747.7153291,260,2018,2,55,1,10,1,6,4294967296,0,0,0,0,0,0,0,0,0,0,0,0,0,0,0.00068,0.00002,0,5.3800001144,0.3899999857,0,0,0,0,0,0,4.1100001335,5.3899998665,0,0,0,0,0,0,4.1100001335,0,0,0.1599999964,0,0,0,0,0,0,0,0,0,0,0,0,5.3899998665,0,0,0,0,2447408693
1537212147.7005,69747.7153291,69747.7153291,260,2018,2,55,1,10,1,6,4294967296,0,0,0,0,0,0,0,0,0,0,0,0,0,0,0.00068,0.00002,0,5.3800001144,0.3899999857,0,0,0,0,0,0,4.1100001335,5.3899998665,0,0,0,0,0,0,4.1100001335,0,0,0.1599999964,0,0,0,0,0,0,0,0,0,0,0,0,5.3899998665,0,0,0,0,2447408693
1537212148.6989,69748.7137309,69748.7137309,260,2018,2,55,1,11,1,6,4294967296,0,0,0,0,0,0,0,0,0,0,0,0,0,0,0.0007,0.00003,0,5.4600000381,0.4099999964,0,0,0,0,0,0,4.2899999619,5.4800000191,0,0,0,0,0,0,4.2899999619,0,0,0.1599999964,0,0,0,0,0,0,0,0,0,0,0,0,5.4800000191,0,0,0,0,4121680792
1537212148.6989,69748.7137309,69748.7137309,260,2018,2,55,1,11,1,6,4294967296,0,0,0,0,0,0,0,0,0,0,0,0,0,0,0.0007,0.00003,0,5.4600000381,0.4099999964,0,0,0,0,0,0,4.2899999619,5.4800000191,0,0,0,0,0,0,4.2899999619,0,0,0.1599999964,0,0,0,0,0,0,0,0,0,0,0,0,5.4800000191,0,0,0,0,4121680792
1537212149.6972,69749.7121327,69749.7121327,260,2018,2,55,1,12,1,6,4294967296,0,0,0,0,0,0,0,0,0,0,0,0,0,0,0.00072,0.00003,0,5.5500001907,0.4300000072,0,0,0,0,0,0,4.4699997902,5.5700001717,0,0,0,0,0,0,4.4699997902,0,0,0.1700000018,0,0,0,0,0,0,0,0,0,0,0,0,5.5700001717,0,0,0,0,2500171654
1537212149.6973,69749.7121327,69749.7121327,260,2018,2,55,1,12,1,6,4294967296,0,0,0,0,0,0,0,0,0,0,0,0,0,0,0.00072,0.00003,0,5.5500001907,0.4300000072,0,0,0,0,0,0,4.4699997902,5.5700001717,0,0,0,0,0,0,4.4699997902,0,0,0.1700000018,0,0,0,0,0,0,0,0,0,0,0,0,5.5700001717,0,0,0,0,2500171654
1537212150.6957,69750.7105344,69750.7105344,260,2018,2,55,1,13,1,6,4294967296,0,0,0,0,0,0,0,0,0,0,0,0,0,0,0.00074,0.00003,0,5.6399998665,0.4600000083,0,0,0,0,0,0,4.6500000954,5.6599998474,0,0,0,0,0,0,4.6500000954,0,0,0.1700000018,0,0,0,0,0,0,0,0,0,0,0,0,5.6599998474,0,0,0,0,878313226
1537212150.6957,69750.7105344,69750.7105344,260,2018,2,55,1,13,1,6,4294967296,0,0,0,0,0,0,0,0,0,0,0,0,0,0,0.00074,0.00003,0,5.6399998665,0.4600000083,0,0,0,0,0,0,4.6500000954,5.6599998474,0,0,0,0,0,0,4.6500000954,0,0,0.1700000018,0,0,0,0,0,0,0,0,0,0,0,0,5.6599998474,0,0,0,0,878313226
1537212151.6941,69751.7089362,69751.7089362,260,2018,2,55,1,14,1,6,4294967296,0,0,0,0,0,0,0,0,0,0,0,0,0,0,0.00077,0.00003,0,5.7300000191,0.4799999893,0,0,0,0,0,0,4.8299999237,5.75,0,0,0,0,0,0,4.8299999237,0,0,0.1700000018,0,0,0,0,0,0,0,0,0,0,0,0,5.75,0,0,0,0,2848808716
1537212151.6941,69751.7089362,69751.7089362,260,2018,2,55,1,14,1,6,4294967296,0,0,0,0,0,0,0,0,0,0,0,0,0,0,0.00077,0.00003,0,5.7300000191,0.4799999893,0,0,0,0,0,0,4.8299999237,5.75,0,0,0,0,0,0,4.8299999237,0,0,0.1700000018,0,0,0,0,0,0,0,0,0,0,0,0,5.75,0,0,0,0,2848808716
1537212152.6925,69752.7073379,69752.7073379,260,2018,2,55,1,15,1,6,4294967296,0,0,0,0,0,0,0,0,0,0,0,0,0,0,0.0008,0.00003,0,5.8299999237,0.5099999905,0,0,0,0,0,0,5.0300002098,5.8499999046,0,0,0,0,0,0,5.0300002098,0,0,0.1800000072,0,0,0,0,0,0,0,0,0,0,0,0,5.8499999046,0,0,0,0,525308829
1537212152.6925,69752.7073379,69752.7073379,260,2018,2,55,1,15,1,6,4294967296,0,0,0,0,0,0,0,0,0,0,0,0,0,0,0.0008,0.00003,0,5.8299999237,0.5099999905,0,0,0,0,0,0,5.0300002098,5.8499999046,0,0,0,0,0,0,5.0300002098,0,0,0.1800000072,0,0,0,0,0,0,0,0,0,0,0,0,5.8499999046,0,0,0,0,525308829
1537212153.6909,69753.7057397,69753.7057397,260,2018,2,55,1,16,1,6,4294967296,0,0,0,0,0,0,0,0,0,0,0,0,0,0,0.00082,0.00004,0,5.9200000763,0.5400000215,0,0,0,0,0,0,5.2100000381,5.9400000572,0,0,0,0,0,0,5.2100000381,0,0,0.1800000072,0,0,0,0,0,0,0,0,0,0,0,0,5.9400000572,0,0,0,0,4197470700
1537212153.6909,69753.7057397,69753.7057397,260,2018,2,55,1,16,1,6,4294967296,0,0,0,0,0,0,0,0,0,0,0,0,0,0,0.00082,0.00004,0,5.9200000763,0.5400000215,0,0,0,0,0,0,5.2100000381,5.9400000572,0,0,0,0,0,0,5.2100000381,0,0,0.1800000072,0,0,0,0,0,0,0,0,0,0,0,0,5.9400000572,0,0,0,0,4197470700
1537212154.6893,69754.7041414,69754.7041414,260,2018,2,55,1,17,1,6,4294967296,0,0,0,0,0,0,0,0,0,0,0,0,0,0,0.00085,0.00004,0,6,0.5699999928,0,0,0,0,0,0,5.3899998665,6.0300002098,0,0,0,0,0,0,5.3899998665,0,0,0.1800000072,0,0,0,0,0,0,0,0,0,0,0,0,6.0300002098,0,0,0,0,1872796406
1537212154.6893,69754.7041414,69754.7041414,260,2018,2,55,1,17,1,6,4294967296,0,0,0,0,0,0,0,0,0,0,0,0,0,0,0.00085,0.00004,0,6,0.5699999928,0,0,0,0,0,0,5.3899998665,6.0300002098,0,0,0,0,0,0,5.3899998665,0,0,0.1800000072,0,0,0,0,0,0,0,0,0,0,0,0,6.0300002098,0,0,0,0,1872796406
1537212155.6878,69755.7025432,69755.7025432,260,2018,2,55,1,18,1,6,4294967296,0,0,0,0,0,0,0,0,0,0,0,0,0,0,0.00087,0.00004,0,6.0900001526,0.5899999738,0,0,0,0,0,0,5.5700001717,6.1199998856,0,0,0,0,0,0,5.5700001717,0,0,0.1800000072,0,0,0,0,0,0,0,0,0,0,0,0,6.1199998856,0,0,0,0,250280633
1537212155.6878,69755.7025432,69755.7025432,260,2018,2,55,1,18,1,6,4294967296,0,0,0,0,0,0,0,0,0,0,0,0,0,0,0.00087,0.00004,0,6.0900001526,0.5899999738,0,0,0,0,0,0,5.5700001717,6.1199998856,0,0,0,0,0,0,5.5700001717,0,0,0.1800000072,0,0,0,0,0,0,0,0,0,0,0,0,6.1199998856,0,0,0,0,250280633
1537212156.6861,69756.7009449,69756.7009449,260,2018,2,55,1,19,1,6,4294967296,0,0,0,0,0,0,0,0,0,0,0,0,0,0,0.0009,0.00004,0,6.1799998283,0.6200000048,0,0,0,0,0,0,5.75,6.2100000381,0,0,0,0,0,0,5.75,0,0,0.1899999976,0,0,0,0,0,0,0,0,0,0,0,0,6.2100000381,0,0,0,0,2221265697
1537212156.6861,69756.7009449,69756.7009449,260,2018,2,55,1,19,1,6,4294967296,0,0,0,0,0,0,0,0,0,0,0,0,0,0,0.0009,0.00004,0,6.1799998283,0.6200000048,0,0,0,0,0,0,5.75,6.2100000381,0,0,0,0,0,0,5.75,0,0,0.1899999976,0,0,0,0,0,0,0,0,0,0,0,0,6.2100000381,0,0,0,0,2221265697
1537212157.7,69757.7149467,69757.7149467,260,2018,2,55,1,20,1,6,4294967296,0,0,0,0,0,0,0,0,0,0,0,0,0,0,0.00092,0.00005,0,6.2699999809,0.6499999762,0,0,0,0,0,0,5.9299998283,6.3000001907,0,0,0,0,0,0,5.9299998283,0,0,0.1899999976,0,0,0,0,0,0,0,0,0,0,0,0,6.3000001907,0,0,0,0,96234723
1537212157.7001,69757.7149467,69757.7149467,260,2018,2,55,1,20,1,6,4294967296,0,0,0,0,0,0,0,0,0,0,0,0,0,0,0.00092,0.00005,0,6.2699999809,0.6499999762,0,0,0,0,0,0,5.9299998283,6.3000001907,0,0,0,0,0,0,5.9299998283,0,0,0.1899999976,0,0,0,0,0,0,0,0,0,0,0,0,6.3000001907,0,0,0,0,96234723
1537212158.6985,69758.7133485,69758.7133485,260,2018,2,55,1,21,1,6,4294967296,0,0,0,0,0,0,0,0,0,0,0,0,0,0,0.00095,0.00005,0,6.3600001335,0.6800000072,0,0,0,0,0,0,6.1300001144,6.4000000954,0,0,0,0,0,0,6.1300001144,0,0,0.1899999976,0,0,0,0,0,0,0,0,0,0,0,0,6.4000000954,0,0,0,0,2066688272
1537212158.6985,69758.7133485,69758.7133485,260,2018,2,55,1,21,1,6,4294967296,0,0,0,0,0,0,0,0,0,0,0,0,0,0,0.00095,0.00005,0,6.3600001335,0.6800000072,0,0,0,0,0,0,6.1300001144,6.4000000954,0,0,0,0,0,0,6.1300001144,0,0,0.1899999976,0,0,0,0,0,0,0,0,0,0,0,0,6.4000000954,0,0,0,0,2066688272
1537212159.6974,69759.7117502,69759.7117502,260,2018,2,55,1,22,1,6,4294967296,0,0,0,0,0,0,0,0,0,0,0,0,0,0,0.00098,0.00005,0,6.4499998093,0.7099999785,0,0,0,0,0,0,6.3099999428,6.4899997711,0,0,0,0,0,0,6.3099999428,0,0,0.1899999976,0,0,0,0,0,0,0,0,0,0,0,0,6.4899997711,0,0,0,0,4090599745
1537212159.6974,69759.7117502,69759.7117502,260,2018,2,55,1,22,1,6,4294967296,0,0,0,0,0,0,0,0,0,0,0,0,0,0,0.00098,0.00005,0,6.4499998093,0.7099999785,0,0,0,0,0,0,6.3099999428,6.4899997711,0,0,0,0,0,0,6.3099999428,0,0,0.1899999976,0,0,0,0,0,0,0,0,0,0,0,0,6.4899997711,0,0,0,0,4090599745
1537212160.6953,69760.710152,69760.710152,260,2018,2,55,1,23,1,6,4294967296,0,0,0,0,0,0,0,0,0,0,0,0,0,0,0.00101,0.00005,0,6.5399999619,0.7400000095,0,0,0,0,0,0,6.4899997711,6.5799999237,0,0,0,0,0,0,6.4899997711,0,0,0.200000003,0,0,0,0,0,0,0,0,0,0,0,0,6.5799999237,0,0,0,0,672584976
1537212160.6953,69760.710152,69760.710152,260,2018,2,55,1,23,1,6,4294967296,0,0,0,0,0,0,0,0,0,0,0,0,0,0,0.00101,0.00005,0,6.5399999619,0.7400000095,0,0,0,0,0,0,6.4899997711,6.5799999237,0,0,0,0,0,0,6.4899997711,0,0,0.200000003,0,0,0,0,0,0,0,0,0,0,0,0,6.5799999237,0,0,0,0,672584976
1537212161.6937,69761.7085537,69761.7085537,260,2018,2,55,1,24,1,6,4294967296,0,0,0,0,0,0,0,0,0,0,0,0,0,0,0.00103,0.00006,0,6.6199998856,0.7699999809,0,0,0,0,0,0,6.6700000763,6.6700000763,0,0,0,0,0,0,6.6700000763,0,0,0.200000003,0,0,0,0,0,0,0,0,0,0,0,0,6.6700000763,0,0,0,0,1400730489
1537212161.6938,69761.7085537,69761.7085537,260,2018,2,55,1,24,1,6,4294967296,0,0,0,0,0,0,0,0,0,0,0,0,0,0,0.00103,0.00006,0,6.6199998856,0.7699999809,0,0,0,0,0,0,6.6700000763,6.6700000763,0,0,0,0,0,0,6.6700000763,0,0,0.200000003,0,0,0,0,0,0,0,0,0,0,0,0,6.6700000763,0,0,0,0,1400730489
1537212162.6921,69762.7069555,69762.7069555,260,2018,2,55,1,25,1,6,4294967296,0,0,0,0,0,0,0,0,0,0,0,0,0,0,0.00106,0.00006,0,6.7100000381,0.8100000024,0,0,0,0,0,0,6.8499999046,6.7600002289,0,0,0,0,0,0,6.8499999046,0,0,0.200000003,0,0,0,0,0,0,0,0,0,0,0,0,6.7600002289,0,0,0,0,2277179697
1537212162.6921,69762.7069555,69762.7069555,260,2018,2,55,1,25,1,6,4294967296,0,0,0,0,0,0,0,0,0,0,0,0,0,0,0.00106,0.00006,0,6.7100000381,0.8100000024,0,0,0,0,0,0,6.8499999046,6.7600002289,0,0,0,0,0,0,6.8499999046,0,0,0.200000003,0,0,0,0,0,0,0,0,0,0,0,0,6.7600002289,0,0,0,0,2277179697
1537212163.6905,69763.7053572,69763.7053572,260,2018,2,55,1,26,1,6,4294967296,0,0,0,0,0,0,0,0,0,0,0,0,0,0,0.00109,0.00006,0,6.8000001907,0.8399999738,0,0,0,0,0,0,7.0300002098,6.8499999046,0,0,0,0,0,0,7.0300002098,0,0,0.2099999934,0,0,0,0,0,0,0,0,0,0,0,0,6.8499999046,0,0,0,0,3154118479
1537212163.6905,69763.7053572,69763.7053572,260,2018,2,55,1,26,1,6,4294967296,0,0,0,0,0,0,0,0,0,0,0,0,0,0,0.00109,0.00006,0,6.8000001907,0.8399999738,0,0,0,0,0,0,7.0300002098,6.8499999046,0,0,0,0,0,0,7.0300002098,0,0,0.2099999934,0,0,0,0,0,0,0,0,0,0,0,0,6.8499999046,0,0,0,0,3154118479
1537212164.689,69764.703759,69764.703759,260,2018,2,55,1,27,1,6,4294967296,0,0,0,0,0,0,0,0,0,0,0,0,0,0,0.00112,0.00007,0,6.8899998665,0.8700000048,0,0,0,0,0,0,7.2100000381,6.9400000572,0,0,0,0,0,0,7.2100000381,0,0,0.2099999934,0,0,0,0,0,0,0,0,0,0,0,0,6.9400000572,0,0,0,0,2058340513
1537212164.689,69764.703759,69764.703759,260,2018,2,55,1,27,1,6,4294967296,0,0,0,0,0,0,0,0,0,0,0,0,0,0,0.00112,0.00007,0,6.8899998665,0.8700000048,0,0,0,0,0,0,7.2100000381,6.9400000572,0,0,0,0,0,0,7.2100000381,0,0,0.2099999934,0,0,0,0,0,0,0,0,0,0,0,0,6.9400000572,0,0,0,0,2058340513
1537212165.6873,69765.7021607,69765.7021607,260,2018,2,55,1,28,1,6,4294967296,0,0,0,0,0,0,0,0,0,0,0,0,0,0,0.00115,0.00007,0,6.9800000191,0.9100000262,0,0,0,0,0,0,7.4099998474,7.0399999619,0,0,0,0,0,0,7.4099998474,0,0,0.2099999934,0,0,0,0,0,0,0,0,0,0,0,0,7.0399999619,0,0,0,0,2934901807
1537212165.6873,69765.7021607,69765.7021607,260,2018,2,55,1,28,1,6,4294967296,0,0,0,0,0,0,0,0,0,0,0,0,0,0,0.00115,0.00007,0,6.9800000191,0.9100000262,0,0,0,0,0,0,7.4099998474,7.0399999619,0,0,0,0,0,0,7.4099998474,0,0,0.2099999934,0,0,0,0,0,0,0,0,0,0,0,0,7.0399999619,0,0,0,0,2934901807
1537212166.6857,69766.7005625,69766.7005625,260,2018,2,55,1,29,1,6,4294967296,0,0,0,0,0,0,0,0,0,0,0,0,0,0,0.00118,0.00008,0,7.0700001717,0.9399999976,0,0,0,0,0,0,7.5900001526,7.1300001144,0,0,0,0,0,0,7.5900001526,0,0,0.2099999934,0,0,0,0,0,0,0,0,0,0,0,0,7.1300001144,0,0,0,0,2487817925
1537212166.6857,69766.7005625,69766.7005625,260,2018,2,55,1,29,1,6,4294967296,0,0,0,0,0,0,0,0,0,0,0,0,0,0,0.00118,0.00008,0,7.0700001717,0.9399999976,0,0,0,0,0,0,7.5900001526,7.1300001144,0,0,0,0,0,0,7.5900001526,0,0,0.2099999934,0,0,0,0,0,0,0,0,0,0,0,0,7.1300001144,0,0,0,0,2487817925
1537212167.6997,69767.7145643,69767.7145643,260,2018,2,55,1,30,1,6,4294967296,0,0,0,0,0,0,0,0,0,0,0,0,0,0,0.00121,0.00008,0,7.1500000954,0.9800000191,0,0,0,0,0,0,7.7699999809,7.2199997902,0,0,0,0,0,0,7.7699999809,0,0,0.2199999988,0,0,0,0,0,0,0,0,0,0,0,0,7.2199997902,0,0,0,0,1213997626
1537212167.6997,69767.7145643,69767.7145643,260,2018,2,55,1,30,1,6,4294967296,0,0,0,0,0,0,0,0,0,0,0,0,0,0,0.00121,0.00008,0,7.1500000954,0.9800000191,0,0,0,0,0,0,7.7699999809,7.2199997902,0,0,0,0,0,0,7.7699999809,0,0,0.2199999988,0,0,0,0,0,0,0,0,0,0,0,0,7.2199997902,0,0,0,0,1213997626
1537212168.6981,69768.712966,69768.712966,260,2018,2,55,1,31,1,6,4294967296,0,0,0,0,0,0,0,0,0,0,0,0,0,0,0.00124,0.00008,0,7.2399997711,1.0099999905,0,0,0,0,0,0,7.9499998093,7.3099999428,0,0,0,0,0,0,7.9499998093,0,0,0.2199999988,0,0,0,0,0,0,0,0,0,0,0,0,7.3099999428,0,0,0,0,2090181431
1537212168.6981,69768.712966,69768.712966,260,2018,2,55,1,31,1,6,4294967296,0,0,0,0,0,0,0,0,0,0,0,0,0,0,0.00124,0.00008,0,7.2399997711,1.0099999905,0,0,0,0,0,0,7.9499998093,7.3099999428,0,0,0,0,0,0,7.9499998093,0,0,0.2199999988,0,0,0,0,0,0,0,0,0,0,0,0,7.3099999428,0,0,0,0,2090181431
1537212169.6965,69769.7113678,69769.7113678,260,2018,2,55,1,32,1,6,4294967296,0,0,0,0,0,0,0,0,0,0,0,0,0,0,0.00127,0.00009,0,7.3299999237,1.0499999523,0,0,0,0,0,0,8.1300001144,7.4000000954,0,0,0,0,0,0,8.1300001144,0,0,0.2199999988,0,0,0,0,0,0,0,0,0,0,0,0,7.4000000954,0,0,0,0,1642657147
1537212169.6965,69769.7113678,69769.7113678,260,2018,2,55,1,32,1,6,4294967296,0,0,0,0,0,0,0,0,0,0,0,0,0,0,0.00127,0.00009,0,7.3299999237,1.0499999523,0,0,0,0,0,0,8.1300001144,7.4000000954,0,0,0,0,0,0,8.1300001144,0,0,0.2199999988,0,0,0,0,0,0,0,0,0,0,0,0,7.4000000954,0,0,0,0,1642657147
1537212170.6949,69770.7097695,69770.7097695,260,2018,2,55,1,33,1,6,4294967296,0,0,0,0,0,0,0,0,0,0,0,0,0,0,0.0013,0.00009,0,7.4099998474,1.0800000429,0,0,0,0,0,0,8.3100004196,7.4899997711,0,0,0,0,0,0,8.3100004196,0,0,0.2199999988,0,0,0,0,0,0,0,0,0,0,0,0,7.4899997711,0,0,0,0,2518274721
1537212170.6949,69770.7097695,69770.7097695,260,2018,2,55,1,33,1,6,4294967296,0,0,0,0,0,0,0,0,0,0,0,0,0,0,0.0013,0.00009,0,7.4099998474,1.0800000429,0,0,0,0,0,0,8.3100004196,7.4899997711,0,0,0,0,0,0,8.3100004196,0,0,0.2199999988,0,0,0,0,0,0,0,0,0,0,0,0,7.4899997711,0,0,0,0,2518274721
1537212171.6933,69771.7081713,69771.7081713,260,2018,2,55,1,34,1,6,4294967296,0,0,0,0,0,0,0,0,0,0,0,0,0,0,0.00134,0.0001,0,7.5100002289,1.1200000048,0,0,0,0,0,0,8.5100002289,7.5900001526,0,0,0,0,0,0,8.5100002289,0,0,0.2300000042,0,0,0,0,0,0,0,0,0,0,0,0,7.5900001526,0,0,0,0,3867759382
1537212171.6933,69771.7081713,69771.7081713,260,2018,2,55,1,34,1,6,4294967296,0,0,0,0,0,0,0,0,0,0,0,0,0,0,0.00134,0.0001,0,7.5100002289,1.1200000048,0,0,0,0,0,0,8.5100002289,7.5900001526,0,0,0,0,0,0,8.5100002289,0,0,0.2300000042,0,0,0,0,0,0,0,0,0,0,0,0,7.5900001526,0,0,0,0,3867759382
1537212172.6917,69772.706573,69772.706573,260,2018,2,55,1,35,1,6,4294967296,0,0,0,0,0,0,0,0,0,0,0,0,0,0,0.00137,0.0001,0,7.5900001526,1.1599999666,0,0,0,0,0,0,8.6899995804,7.6799998283,0,0,0,0,0,0,8.6899995804,0,0,0.2300000042,0,0,0,0,0,0,0,0,0,0,0,0,7.6799998283,0,0,0,0,448493545
1537212172.6917,69772.706573,69772.706573,260,2018,2,55,1,35,1,6,4294967296,0,0,0,0,0,0,0,0,0,0,0,0,0,0,0.00137,0.0001,0,7.5900001526,1.1599999666,0,0,0,0,0,0,8.6899995804,7.6799998283,0,0,0,0,0,0,8.6899995804,0,0,0.2300000042,0,0,0,0,0,0,0,0,0,0,0,0,7.6799998283,0,0,0,0,448493545
1537212173.6901,69773.7049748,69773.7049748,260,2018,2,55,1,36,1,6,4294967296,0,0,0,0,0,0,0,0,0,0,0,0,0,0,0.0014,0.00011,0,7.6799998283,1.2000000477,0,0,0,0,0,0,8.8699998856,7.7699999809,0,0,0,0,0,0,8.8699998856,0,0,0.2300000042,0,0,0,0,0,0,0,0,0,0,0,0,7.7699999809,0,0,0,0,864400
1537212173.6901,69773.7049748,69773.7049748,260,2018,2,55,1,36,1,6,4294967296,0,0,0,0,0,0,0,0,0,0,0,0,0,0,0.0014,0.00011,0,7.6799998283,1.2000000477,0,0,0,0,0,0,8.8699998856,7.7699999809,0,0,0,0,0,0,8.8699998856,0,0,0.2300000042,0,0,0,0,0,0,0,0,0,0,0,0,7.7699999809,0,0,0,0,864400
1537212174.6905,69774.7053853,69774.7053853,260,2018,2,55,1,37,1,6,4294967296,0,0,0,0,0,0,0,0,0,0,0,0,0,0,0.00143,0.00011,0,7.7600002289,1.2400000095,0,0,0,0,0,0,9.0500001907,7.8600001335,0,0,0,0,0,0,9.0500001907,0,0,0.2399999946,0,0,0,0,0,0,0,0,0,0,0,0,7.8600001335,0,0,0,0,1153324321
1537212174.6905,69774.7053853,69774.7053853,260,2018,2,55,1,37,1,6,4294967296,0,0,0,0,0,0,0,0,0,0,0,0,0,0,0.00143,0.00011,0,7.7600002289,1.2400000095,0,0,0,0,0,0,9.0500001907,7.8600001335,0,0,0,0,0,0,9.0500001907,0,0,0.2399999946,0,0,0,0,0,0,0,0,0,0,0,0,7.8600001335,0,0,0,0,1153324321
1537212175.6889,69775.7037871,69775.7037871,260,2018,2,55,1,38,1,6,4294967296,0,0,0,0,0,0,0,0,0,0,0,0,0,0,0.00146,0.00012,0,7.8499999046,1.2799999714,0,0,0,0,0,0,9.2299995422,7.9499998093,0,0,0,0,0,0,9.2299995422,0,0,0.2399999946,0,0,0,0,0,0,0,0,0,0,0,0,7.9499998093,0,0,0,0,705695171
1537212175.6889,69775.7037871,69775.7037871,260,2018,2,55,1,38,1,6,4294967296,0,0,0,0,0,0,0,0,0,0,0,0,0,0,0.00146,0.00012,0,7.8499999046,1.2799999714,0,0,0,0,0,0,9.2299995422,7.9499998093,0,0,0,0,0,0,9.2299995422,0,0,0.2399999946,0,0,0,0,0,0,0,0,0,0,0,0,7.9499998093,0,0,0,0,705695171
1537212176.6855,69776.7003956,69776.7003956,260,2018,2,55,1,39,1,6,4294967296,0,0,0,0,0,0,0,0,0,0,0,0,0,0,0.0015,0.00012,0,7.9299998283,1.3099999428,0,0,0,0,0,0,9.4099998474,8.0399999619,0,0,0,0,0,0,9.4099998474,0,0,0.2399999946,0,0,0,0,0,0,0,0,0,0,0,0,8.0399999619,0,0,0,0,3131111190
1537212176.6855,69776.7003956,69776.7003956,260,2018,2,55,1,39,1,6,4294967296,0,0,0,0,0,0,0,0,0,0,0,0,0,0,0.0015,0.00012,0,7.9299998283,1.3099999428,0,0,0,0,0,0,9.4099998474,8.0399999619,0,0,0,0,0,0,9.4099998474,0,0,0.2399999946,0,0,0,0,0,0,0,0,0,0,0,0,8.0399999619,0,0,0,0,3131111190
1537212177.7001,69777.7150312,69777.7150312,260,2018,2,55,1,40,1,6,4294967296,0,0,0,0,0,0,0,0,0,0,0,0,0,0,0.00153,0.00013,0,8.029999733,1.3600000143,0,0,0,0,0,0,9.6099996567,8.1400003433,0,0,0,0,0,0,9.6099996567,0,0,0.2399999946,0,0,0,0,0,0,0,0,0,0,0,0,8.1400003433,0,0,0,0,2780091035
1537212177.7002,69777.7150312,69777.7150312,260,2018,2,55,1,40,1,6,4294967296,0,0,0,0,0,0,0,0,0,0,0,0,0,0,0.00153,0.00013,0,8.029999733,1.3600000143,0,0,0,0,0,0,9.6099996567,8.1400003433,0,0,0,0,0,0,9.6099996567,0,0,0.2399999946,0,0,0,0,0,0,0,0,0,0,0,0,8.1400003433,0,0,0,0,2780091035
1537212178.6985,69778.7134329,69778.7134329,260,2018,2,55,1,41,1,6,4294967296,0,0,0,0,0,0,0,0,0,0,0,0,0,0,0.00157,0.00013,0,8.1099996567,1.3999999762,0,0,0,0,0,0,9.7899999619,8.2299995422,0,0,0,0,0,0,9.7899999619,0,0,0.25,0,0,0,0,0,0,0,0,0,0,0,0,8.2299995422,0,0,0,0,1157561518
1537212178.6986,69778.7134329,69778.7134329,260,2018,2,55,1,41,1,6,4294967296,0,0,0,0,0,0,0,0,0,0,0,0,0,0,0.00157,0.00013,0,8.1099996567,1.3999999762,0,0,0,0,0,0,9.7899999619,8.2299995422,0,0,0,0,0,0,9.7899999619,0,0,0.25,0,0,0,0,0,0,0,0,0,0,0,0,8.2299995422,0,0,0,0,1157561518
1537212179.6969,69779.7118347,69779.7118347,260,2018,2,55,1,42,1,6,4294967296,0,0,0,0,0,0,0,0,0,0,0,0,0,0,0.0016,0.00014,0,8.1899995804,1.4400000572,0,0,0,0,0,0,9.970000267,8.3199996948,0,0,0,0,0,0,9.970000267,0,0,0.25,0,0,0,0,0,0,0,0,0,0,0,0,8.3199996948,0,0,0,0,3518805081
1537212179.697,69779.7118347,69779.7118347,260,2018,2,55,1,42,1,6,4294967296,0,0,0,0,0,0,0,0,0,0,0,0,0,0,0.0016,0.00014,0,8.1899995804,1.4400000572,0,0,0,0,0,0,9.970000267,8.3199996948,0,0,0,0,0,0,9.970000267,0,0,0.25,0,0,0,0,0,0,0,0,0,0,0,0,8.3199996948,0,0,0,0,3518805081
1537212180.6955,69780.7102364,69780.7102364,260,2018,2,55,1,43,1,6,4294967296,0,0,0,0,0,0,0,0,0,0,0,0,0,0,0.00164,0.00015,0,8.279999733,1.4900000095,0,0,0,0,0,0,10.220000267,8.4099998474,0,0,0,0,0,0,10.220000267,0,0,0.25,0,0,0,0,0,0,0,0,0,0,0,0,8.4099998474,0,0,0,0,3381646637
1537212180.6955,69780.7102364,69780.7102364,260,2018,2,55,1,43,1,6,4294967296,0,0,0,0,0,0,0,0,0,0,0,0,0,0,0.00164,0.00015,0,8.279999733,1.4900000095,0,0,0,0,0,0,10.220000267,8.4099998474,0,0,0,0,0,0,10.220000267,0,0,0.25,0,0,0,0,0,0,0,0,0,0,0,0,8.4099998474,0,0,0,0,3381646637
1537212181.6938,69781.7086382,69781.7086382,260,2018,2,55,1,44,1,6,4294967296,0,0,0,0,0,0,0,0,0,0,0,0,0,0,0.00167,0.00015,0,8.3599996567,1.5499999523,0,0,0,0,0,0,10.4899997711,8.5,0,0,0,0,0,0,10.4899997711,0,0,0.25,0,0,0,0,0,0,0,0,0,0,0,0,8.5,0,0,0,0,4257445727
1537212181.6938,69781.7086382,69781.7086382,260,2018,2,55,1,44,1,6,4294967296,0,0,0,0,0,0,0,0,0,0,0,0,0,0,0.00167,0.00015,0,8.3599996567,1.5499999523,0,0,0,0,0,0,10.4899997711,8.5,0,0,0,0,0,0,10.4899997711,0,0,0.25,0,0,0,0,0,0,0,0,0,0,0,0,8.5,0,0,0,0,4257445727
1537212182.6922,69782.7070399,69782.7070399,260,2018,2,55,1,45,1,6,4294967296,0,0,0,0,0,0,0,0,0,0,0,0,0,0,0.00171,0.00016,0,8.4399995804,1.6000000238,0,0,0,0,0,0,10.7600002289,8.5900001526,0,0,0,0,0,0,10.7600002289,0,0,0.2599999905,0,0,0,0,0,0,0,0,0,0,0,0,8.5900001526,0,0,0,0,4120654284
1537212182.6922,69782.7070399,69782.7070399,260,2018,2,55,1,45,1,6,4294967296,0,0,0,0,0,0,0,0,0,0,0,0,0,0,0.00171,0.00016,0,8.4399995804,1.6000000238,0,0,0,0,0,0,10.7600002289,8.5900001526,0,0,0,0,0,0,10.7600002289,0,0,0.2599999905,0,0,0,0,0,0,0,0,0,0,0,0,8.5900001526,0,0,0,0,4120654284
1537212183.6905,69783.7054417,69783.7054417,260,2018,2,55,1,46,1,6,4294967296,0,0,0,0,0,0,0,0,0,0,0,0,0,0,0.00174,0.00017,0,8.5200004578,1.6599999666,0,0,0,0,0,0,11.029999733,8.6800003052,0,0,0,0,0,0,11.029999733,0,0,0.2599999905,0,0,0,0,0,0,0,0,0,0,0,0,8.6800003052,0,0,0,0,2187287067
1537212183.6906,69783.7054417,69783.7054417,260,2018,2,55,1,46,1,6,4294967296,0,0,0,0,0,0,0,0,0,0,0,0,0,0,0.00174,0.00017,0,8.5200004578,1.6599999666,0,0,0,0,0,0,11.029999733,8.6800003052,0,0,0,0,0,0,11.029999733,0,0,0.2599999905,0,0,0,0,0,0,0,0,0,0,0,0,8.6800003052,0,0,0,0,2187287067
1537212184.698,69784.7128569,69784.7128569,260,2018,2,55,1,47,1,6,4294967296,0,0,0,0,0,0,0,0,0,0,0,0,0,0,0.00178,0.00017,0,8.6099996567,1.7200000286,0,0,0,0,0,0,11.3299999237,8.779999733,0,0,0,0,0,0,11.3299999237,0,0,0.2599999905,0,0,0,0,0,0,0,0,0,0,0,0,8.779999733,0,0,0,0,1803343354
1537212184.698,69784.7128569,69784.7128569,260,2018,2,55,1,47,1,6,4294967296,0,0,0,0,0,0,0,0,0,0,0,0,0,0,0.00178,0.00017,0,8.6099996567,1.7200000286,0,0,0,0,0,0,11.3299999237,8.779999733,0,0,0,0,0,0,11.3299999237,0,0,0.2599999905,0,0,0,0,0,0,0,0,0,0,0,0,8.779999733,0,0,0,0,1803343354
1537212185.6965,69785.7112587,69785.7112587,260,2018,2,55,1,48,1,6,4294967296,0,0,0,0,0,0,0,0,0,0,0,0,0,0,0.00182,0.00018,0,8.6899995804,1.7799999714,0,0,0,0,0,0,11.6000003815,8.8699998856,0,0,0,0,0,0,11.6000003815,0,0,0.2700000107,0,0,0,0,0,0,0,0,0,0,0,0,8.8699998856,0,0,0,0,1666649544
1537212185.6965,69785.7112587,69785.7112587,260,2018,2,55,1,48,1,6,4294967296,0,0,0,0,0,0,0,0,0,0,0,0,0,0,0.00182,0.00018,0,8.6899995804,1.7799999714,0,0,0,0,0,0,11.6000003815,8.8699998856,0,0,0,0,0,0,11.6000003815,0,0,0.2700000107,0,0,0,0,0,0,0,0,0,0,0,0,8.8699998856,0,0,0,0,1666649544
1537212186.6948,69786.7096605,69786.7096605,260,2018,2,55,1,49,1,6,4294967296,0,0,0,0,0,0,0,0,0,0,0,0,0,0,0.00185,0.00019,0,8.7700004578,1.8400000334,0,0,0,0,0,0,11.8699998856,8.9600000381,0,0,0,0,0,0,11.8699998856,0,0,0.2700000107,0,0,0,0,0,0,0,0,0,0,0,0,8.9600000381,0,0,0,0,4028249622
1537212186.6948,69786.7096605,69786.7096605,260,2018,2,55,1,49,1,6,4294967296,0,0,0,0,0,0,0,0,0,0,0,0,0,0,0.00185,0.00019,0,8.7700004578,1.8400000334,0,0,0,0,0,0,11.8699998856,8.9600000381,0,0,0,0,0,0,11.8699998856,0,0,0.2700000107,0,0,0,0,0,0,0,0,0,0,0,0,8.9600000381,0,0,0,0,4028249622
1537212187.6932,69787.7080622,69787.7080622,260,2018,2,55,1,50,1,6,4294967296,0,0,0,0,0,0,0,0,0,0,0,0,0,0,0.00189,0.0002,0,8.8500003815,1.8999999762,0,0,0,0,0,0,12.1400003433,9.0500001907,0,0,0,0,0,0,12.1400003433,0,0,0.2700000107,0,0,0,0,0,0,0,0,0,0,0,0,9.0500001907,0,0,0,0,3891206519
1537212187.6932,69787.7080622,69787.7080622,260,2018,2,55,1,50,1,6,4294967296,0,0,0,0,0,0,0,0,0,0,0,0,0,0,0.00189,0.0002,0,8.8500003815,1.8999999762,0,0,0,0,0,0,12.1400003433,9.0500001907,0,0,0,0,0,0,12.1400003433,0,0,0.2700000107,0,0,0,0,0,0,0,0,0,0,0,0,9.0500001907,0,0,0,0,3891206519
1537212188.6916,69788.706464,69788.706464,260,2018,2,55,1,51,1,6,4294967296,0,0,0,0,0,0,0,0,0,0,0,0,0,0,0.00193,0.00021,0,8.9300003052,1.9600000381,0,0,0,0,0,0,12.4099998474,9.1400003433,0,0,0,0,0,0,12.4099998474,0,0,0.2700000107,0,0,0,0,0,0,0,0,0,0,0,0,9.1400003433,0,0,0,0,3754177162
1537212188.6916,69788.706464,69788.706464,260,2018,2,55,1,51,1,6,4294967296,0,0,0,0,0,0,0,0,0,0,0,0,0,0,0.00193,0.00021,0,8.9300003052,1.9600000381,0,0,0,0,0,0,12.4099998474,9.1400003433,0,0,0,0,0,0,12.4099998474,0,0,0.2700000107,0,0,0,0,0,0,0,0,0,0,0,0,9.1400003433,0,0,0,0,3754177162
1537212189.69,69789.7048657,69789.7048657,260,2018,2,55,1,52,1,6,4294967296,0,0,0,0,0,0,0,0,0,0,0,0,0,0,0.00197,0.00021,0,9.0100002289,2.0299999714,0,0,0,0,0,0,12.6800003052,9.2299995422,0,0,0,0,0,0,12.6800003052,0,0,0.2800000012,0,0,0,0,0,0,0,0,0,0,0,0,9.2299995422,0,0,0,0,3434538891
1537212189.69,69789.7048657,69789.7048657,260,2018,2,55,1,52,1,6,4294967296,0,0,0,0,0,0,0,0,0,0,0,0,0,0,0.00197,0.00021,0,9.0100002289,2.0299999714,0,0,0,0,0,0,12.6800003052,9.2299995422,0,0,0,0,0,0,12.6800003052,0,0,0.2800000012,0,0,0,0,0,0,0,0,0,0,0,0,9.2299995422,0,0,0,0,3434538891
1537212190.6884,69790.7032675,69790.7032675,260,2018,2,55,1,53,1,6,4294967296,0,0,0,0,0,0,0,0,0,0,0,0,0,0,0.00201,0.00022,0,9.0900001526,2.0999999046,0,0,0,0,0,0,12.9799995422,9.3299999237,0,0,0,0,0,0,12.9799995422,0,0,0.2800000012,0,0,0,0,0,0,0,0,0,0,0,0,9.3299999237,0,0,0,0,3999675279
1537212190.6884,69790.7032675,69790.7032675,260,2018,2,55,1,53,1,6,4294967296,0,0,0,0,0,0,0,0,0,0,0,0,0,0,0.00201,0.00022,0,9.0900001526,2.0999999046,0,0,0,0,0,0,12.9799995422,9.3299999237,0,0,0,0,0,0,12.9799995422,0,0,0.2800000012,0,0,0,0,0,0,0,0,0,0,0,0,9.3299999237,0,0,0,0,3999675279
1537212191.6868,69791.7016692,69791.7016692,260,2018,2,55,1,54,1,6,4294967296,0,0,0,0,0,0,0,0,0,0,0,0,0,0,0.00205,0.00023,0,9.1700000763,2.1600000858,0,0,0,0,0,0,13.25,9.4200000763,0,0,0,0,0,0,13.25,0,0,0.2800000012,0,0,0,0,0,0,0,0,0,0,0,0,9.4200000763,0,0,0,0,269704803
1537212191.6868,69791.7016692,69791.7016692,260,2018,2,55,1,54,1,6,4294967296,0,0,0,0,0,0,0,0,0,0,0,0,0,0,0.00205,0.00023,0,9.1700000763,2.1600000858,0,0,0,0,0,0,13.25,9.4200000763,0,0,0,0,0,0,13.25,0,0,0.2800000012,0,0,0,0,0,0,0,0,0,0,0,0,9.4200000763,0,0,0,0,269704803
1537212192.686,69792.7009073,69792.7009073,260,2018,2,55,1,55,1,6,4294967296,0,0,0,0,0,0,0,0,0,0,0,0,0,0,0.00208,0.00024,0,9.25,2.2200000286,0,0,0,0,0,0,13.5200004578,9.5100002289,0,0,0,0,0,0,13.5200004578,0,0,0.2899999917,0,0,0,0,0,0,0,0,0,0,0,0,9.5100002289,0,0,0,0,2199305822
1537212192.686,69792.7009073,69792.7009073,260,2018,2,55,1,55,1,6,4294967296,0,0,0,0,0,0,0,0,0,0,0,0,0,0,0.00208,0.00024,0,9.25,2.2200000286,0,0,0,0,0,0,13.5200004578,9.5100002289,0,0,0,0,0,0,13.5200004578,0,0,0.2899999917,0,0,0,0,0,0,0,0,0,0,0,0,9.5100002289,0,0,0,0,2199305822
1537212193.6973,69793.7121245,69793.7121245,260,2018,2,55,1,56,1,6,4294967296,0,0,0,0,0,0,0,0,0,0,0,0,0,0,0.00212,0.00025,0,9.3199996948,2.2899999619,0,0,0,0,0,0,13.7899999619,9.6000003815,0,0,0,0,0,0,13.7899999619,0,0,0.2899999917,0,0,0,0,0,0,0,0,0,0,0,0,9.6000003815,0,0,0,0,986604786
1537212193.6973,69793.7121245,69793.7121245,260,2018,2,55,1,56,1,6,4294967296,0,0,0,0,0,0,0,0,0,0,0,0,0,0,0.00212,0.00025,0,9.3199996948,2.2899999619,0,0,0,0,0,0,13.7899999619,9.6000003815,0,0,0,0,0,0,13.7899999619,0,0,0.2899999917,0,0,0,0,0,0,0,0,0,0,0,0,9.6000003815,0,0,0,0,986604786
1537212194.6956,69794.7105263,69794.7105263,260,2018,2,55,1,57,1,6,4294967296,0,0,0,0,0,0,0,0,0,0,0,0,0,0,0.00216,0.00026,0,9.3999996185,2.3499999046,0,0,0,0,0,0,14.0600004196,9.6899995804,0,0,0,0,0,0,14.0600004196,0,0,0.2899999917,0,0,0,0,0,0,0,0,0,0,0,0,9.6899995804,0,0,0,0,2956198500
1537212194.6957,69794.7105263,69794.7105263,260,2018,2,55,1,57,1,6,4294967296,0,0,0,0,0,0,0,0,0,0,0,0,0,0,0.00216,0.00026,0,9.3999996185,2.3499999046,0,0,0,0,0,0,14.0600004196,9.6899995804,0,0,0,0,0,0,14.0600004196,0,0,0.2899999917,0,0,0,0,0,0,0,0,0,0,0,0,9.6899995804,0,0,0,0,2956198500
1537212195.694,69795.708928,69795.708928,260,2018,2,55,1,58,1,6,4294967296,0,0,0,0,0,0,0,0,0,0,0,0,0,0,0.0022,0.00027,0,9.4799995422,2.4200000763,0,0,0,0,0,0,14.3299999237,9.779999733,0,0,0,0,0,0,14.3299999237,0,0,0.2899999917,0,0,0,0,0,0,0,0,0,0,0,0,9.779999733,0,0,0,0,630853119
1537212195.6941,69795.708928,69795.708928,260,2018,2,55,1,58,1,6,4294967296,0,0,0,0,0,0,0,0,0,0,0,0,0,0,0.0022,0.00027,0,9.4799995422,2.4200000763,0,0,0,0,0,0,14.3299999237,9.779999733,0,0,0,0,0,0,14.3299999237,0,0,0.2899999917,0,0,0,0,0,0,0,0,0,0,0,0,9.779999733,0,0,0,0,630853119
1537212196.6989,69796.713731,69796.713731,260,2018,2,55,1,59,1,6,4294967296,0,0,0,0,0,0,0,0,0,0,0,0,0,0,0.00225,0.00028,0,9.5600004196,2.5,0,0,0,0,0,0,14.6300001144,9.8800001144,0,0,0,0,0,0,14.6300001144,0,0,0.3000000119,0,0,0,0,0,0,0,0,0,0,0,0,9.8800001144,0,0,0,0,2231409662
1537212196.6989,69796.713731,69796.713731,260,2018,2,55,1,59,1,6,4294967296,0,0,0,0,0,0,0,0,0,0,0,0,0,0,0.00225,0.00028,0,9.5600004196,2.5,0,0,0,0,0,0,14.6300001144,9.8800001144,0,0,0,0,0,0,14.6300001144,0,0,0.3000000119,0,0,0,0,0,0,0,0,0,0,0,0,9.8800001144,0,0,0,0,2231409662
1537212197.6956,69797.7105336,69797.7105336,260,2018,2,55,1,60,1,6,4294967296,0,0,0,0,0,0,0,0,0,0,0,0,0,0,0.00229,0.00029,0,9.6300001144,2.5599999428,0,0,0,0,0,0,14.8999996185,9.970000267,0,0,0,0,0,0,14.8999996185,0,0,0.3000000119,0,0,0,0,0,0,0,0,0,0,0,0,9.970000267,0,0,0,0,3981200517
1537212197.6957,69797.7105336,69797.7105336,260,2018,2,55,1,60,1,6,4294967296,0,0,0,0,0,0,0,0,0,0,0,0,0,0,0.00229,0.00029,0,9.6300001144,2.5599999428,0,0,0,0,0,0,14.8999996185,9.970000267,0,0,0,0,0,0,14.8999996185,0,0,0.3000000119,0,0,0,0,0,0,0,0,0,0,0,0,9.970000267,0,0,0,0,3981200517
1537212198.694,69798.7089353,69798.7089353,260,2018,2,55,1,61,1,6,4294967296,0,0,0,0,0,0,0,0,0,0,0,0,0,0,0.00233,0.0003,0,9.7100000381,2.6300001144,0,0,0,0,0,0,15.1700000763,10.0600004196,0,0,0,0,0,0,15.1700000763,0,0,0.3000000119,0,0,0,0,0,0,0,0,0,0,0,0,10.0600004196,0,0,0,0,1655855137
1537212198.6941,69798.7089353,69798.7089353,260,2018,2,55,1,61,1,6,4294967296,0,0,0,0,0,0,0,0,0,0,0,0,0,0,0.00233,0.0003,0,9.7100000381,2.6300001144,0,0,0,0,0,0,15.1700000763,10.0600004196,0,0,0,0,0,0,15.1700000763,0,0,0.3000000119,0,0,0,0,0,0,0,0,0,0,0,0,10.0600004196,0,0,0,0,1655855137
1537212199.6925,69799.7073371,69799.7073371,260,2018,2,55,1,62,1,6,4294967296,0,0,0,0,0,0,0,0,0,0,0,0,0,0,0.00237,0.00031,0,9.779999733,2.7000000477,0,0,0,0,0,0,15.4399995804,10.1499996185,0,0,0,0,0,0,15.4399995804,0,0,0.3000000119,0,0,0,0,0,0,0,0,0,0,0,0,10.1499996185,0,0,0,0,3625480308
1537212199.6925,69799.7073371,69799.7073371,260,2018,2,55,1,62,1,6,4294967296,0,0,0,0,0,0,0,0,0,0,0,0,0,0,0.00237,0.00031,0,9.779999733,2.7000000477,0,0,0,0,0,0,15.4399995804,10.1499996185,0,0,0,0,0,0,15.4399995804,0,0,0.3000000119,0,0,0,0,0,0,0,0,0,0,0,0,10.1499996185,0,0,0,0,3625480308
1537212200.6908,69800.7057388,69800.7057388,260,2018,2,55,1,63,1,6,4294967296,0,0,0,0,0,0,0,0,0,0,0,0,0,0,0.00241,0.00032,0,9.8599996567,2.7699999809,0,0,0,0,0,0,15.7100000381,10.2399997711,0,0,0,0,0,0,15.7100000381,0,0,0.3100000024,0,0,0,0,0,0,0,0,0,0,0,0,10.2399997711,0,0,0,0,1300470470
1537212200.6909,69800.7057388,69800.7057388,260,2018,2,55,1,63,1,6,4294967296,0,0,0,0,0,0,0,0,0,0,0,0,0,0,0.00241,0.00032,0,9.8599996567,2.7699999809,0,0,0,0,0,0,15.7100000381,10.2399997711,0,0,0,0,0,0,15.7100000381,0,0,0.3100000024,0,0,0,0,0,0,0,0,0,0,0,0,10.2399997711,0,0,0,0,1300470470
1537212201.6893,69801.7041406,69801.7041406,260,2018,2,55,1,64,1,6,4294967296,0,0,0,0,0,0,0,0,0,0,0,0,0,0,0.00245,0.00034,0,9.9300003052,2.8399999142,0,0,0,0,0,0,15.9799995422,10.3299999237,0,0,0,0,0,0,15.9799995422,0,0,0.3100000024,0,0,0,0,0,0,0,0,0,0,0,0,10.3299999237,0,0,0,0,1865512487
1537212201.6893,69801.7041406,69801.7041406,260,2018,2,55,1,64,1,6,4294967296,0,0,0,0,0,0,0,0,0,0,0,0,0,0,0.00245,0.00034,0,9.9300003052,2.8399999142,0,0,0,0,0,0,15.9799995422,10.3299999237,0,0,0,0,0,0,15.9799995422,0,0,0.3100000024,0,0,0,0,0,0,0,0,0,0,0,0,10.3299999237,0,0,0,0,1865512487
1537212202.6876,69802.7025423,69802.7025423,260,2018,2,55,1,65,1,6,4294967296,0,0,0,0,0,0,0,0,0,0,0,0,0,0,0.00249,0.00035,0,10,2.9200000763,0,0,0,0,0,0,16.25,10.4200000763,0,0,0,0,0,0,16.25,0,0,0.3100000024,0,0,0,0,0,0,0,0,0,0,0,0,10.4200000763,0,0,0,0,3834903718
1537212202.6877,69802.7025423,69802.7025423,260,2018,2,55,1,65,1,6,4294967296,0,0,0,0,0,0,0,0,0,0,0,0,0,0,0.00249,0.00035,0,10,2.9200000763,0,0,0,0,0,0,16.25,10.4200000763,0,0,0,0,0,0,16.25,0,0,0.3100000024,0,0,0,0,0,0,0,0,0,0,0,0,10.4200000763,0,0,0,0,3834903718
1537212203.6861,69803.7009441,69803.7009441,260,2018,2,55,1,66,1,6,4294967296,0,0,0,0,0,0,0,0,0,0,0,0,0,0,0.00254,0.00036,0,10.0799999237,3,0,0,0,0,0,0,16.5499992371,10.5200004578,0,0,0,0,0,0,16.5499992371,0,0,0.3199999928,0,0,0,0,0,0,0,0,0,0,0,0,10.5200004578,0,0,0,0,260404163
1537212203.6861,69803.7009441,69803.7009441,260,2018,2,55,1,66,1,6,4294967296,0,0,0,0,0,0,0,0,0,0,0,0,0,0,0.00254,0.00036,0,10.0799999237,3,0,0,0,0,0,0,16.5499992371,10.5200004578,0,0,0,0,0,0,16.5499992371,0,0,0.3199999928,0,0,0,0,0,0,0,0,0,0,0,0,10.5200004578,0,0,0,0,260404163
1537212204.7001,69804.7149459,69804.7149459,260,2018,2,55,1,67,1,6,4294967296,0,0,0,0,0,0,0,0,0,0,0,0,0,0,0.00258,0.00037,0,10.1599998474,3.0699999332,0,0,0,0,0,0,16.8199996948,10.6099996567,0,0,0,0,0,0,16.8199996948,0,0,0.3199999928,0,0,0,0,0,0,0,0,0,0,0,0,10.6099996567,0,0,0,0,78837079
1537212204.7001,69804.7149459,69804.7149459,260,2018,2,55,1,67,1,6,4294967296,0,0,0,0,0,0,0,0,0,0,0,0,0,0,0.00258,0.00037,0,10.1599998474,3.0699999332,0,0,0,0,0,0,16.8199996948,10.6099996567,0,0,0,0,0,0,16.8199996948,0,0,0.3199999928,0,0,0,0,0,0,0,0,0,0,0,0,10.6099996567,0,0,0,0,78837079
1537212205.6985,69805.7133476,69805.7133476,260,2018,2,55,1,68,1,6,4294967296,0,0,0,0,0,0,0,0,0,0,0,0,0,0,0.00262,0.00039,0,10.2299995422,3.1400001049,0,0,0,0,0,0,17.0900001526,10.6999998093,0,0,0,0,0,0,17.0900001526,0,0,0.3199999928,0,0,0,0,0,0,0,0,0,0,0,0,10.6999998093,0,0,0,0,643582241
1537212205.6985,69805.7133476,69805.7133476,260,2018,2,55,1,68,1,6,4294967296,0,0,0,0,0,0,0,0,0,0,0,0,0,0,0.00262,0.00039,0,10.2299995422,3.1400001049,0,0,0,0,0,0,17.0900001526,10.6999998093,0,0,0,0,0,0,17.0900001526,0,0,0.3199999928,0,0,0,0,0,0,0,0,0,0,0,0,10.6999998093,0,0,0,0,643582241
1537212206.6968,69806.7117494,69806.7117494,260,2018,2,55,1,69,1,6,4294967296,0,0,0,0,0,0,0,0,0,0,0,0,0,0,0.00267,0.0004,0,10.3000001907,3.2200000286,0,0,0,0,0,0,17.3600006104,10.7899999619,0,0,0,0,0,0,17.3600006104,0,0,0.3199999928,0,0,0,0,0,0,0,0,0,0,0,0,10.7899999619,0,0,0,0,1363651524
1537212206.6969,69806.7117494,69806.7117494,260,2018,2,55,1,69,1,6,4294967296,0,0,0,0,0,0,0,0,0,0,0,0,0,0,0.00267,0.0004,0,10.3000001907,3.2200000286,0,0,0,0,0,0,17.3600006104,10.7899999619,0,0,0,0,0,0,17.3600006104,0,0,0.3199999928,0,0,0,0,0,0,0,0,0,0,0,0,10.7899999619,0,0,0,0,1363651524
1537212207.6953,69807.7101511,69807.7101511,260,2018,2,55,1,70,1,6,4294967296,0,0,0,0,0,0,0,0,0,0,0,0,0,0,0.00271,0.00041,0,10.3699998856,3.2999999523,0,0,0,0,0,0,17.6299991608,10.8800001144,0,0,0,0,0,0,17.6299991608,0,0,0.3300000131,0,0,0,0,0,0,0,0,0,0,0,0,10.8800001144,0,0,0,0,3333357323
1537212207.6953,69807.7101511,69807.7101511,260,2018,2,55,1,70,1,6,4294967296,0,0,0,0,0,0,0,0,0,0,0,0,0,0,0.00271,0.00041,0,10.3699998856,3.2999999523,0,0,0,0,0,0,17.6299991608,10.8800001144,0,0,0,0,0,0,17.6299991608,0,0,0.3300000131,0,0,0,0,0,0,0,0,0,0,0,0,10.8800001144,0,0,0,0,3333357323
1537212208.6937,69808.7085529,69808.7085529,260,2018,2,55,1,71,1,6,4294967296,0,0,0,0,0,0,0,0,0,0,0,0,0,0,0.00275,0.00043,0,10.4399995804,3.3699998856,0,0,0,0,0,0,17.8999996185,10.970000267,0,0,0,0,0,0,17.8999996185,0,0,0.3300000131,0,0,0,0,0,0,0,0,0,0,0,0,10.970000267,0,0,0,0,3898116226
1537212208.6937,69808.7085529,69808.7085529,260,2018,2,55,1,71,1,6,4294967296,0,0,0,0,0,0,0,0,0,0,0,0,0,0,0.00275,0.00043,0,10.4399995804,3.3699998856,0,0,0,0,0,0,17.8999996185,10.970000267,0,0,0,0,0,0,17.8999996185,0,0,0.3300000131,0,0,0,0,0,0,0,0,0,0,0,0,10.970000267,0,0,0,0,3898116226
1537212209.6921,69809.7069546,69809.7069546,260,2018,2,55,1,72,1,6,4294967296,0,0,0,0,0,0,0,0,0,0,0,0,0,0,0.0028,0.00044,0,10.5200004578,3.4600000381,0,0,0,0,0,0,18.2000007629,11.0699996948,0,0,0,0,0,0,18.2000007629,0,0,0.3300000131,0,0,0,0,0,0,0,0,0,0,0,0,11.0699996948,0,0,0,0,323309327
1537212209.6921,69809.7069546,69809.7069546,260,2018,2,55,1,72,1,6,4294967296,0,0,0,0,0,0,0,0,0,0,0,0,0,0,0.0028,0.00044,0,10.5200004578,3.4600000381,0,0,0,0,0,0,18.2000007629,11.0699996948,0,0,0,0,0,0,18.2000007629,0,0,0.3300000131,0,0,0,0,0,0,0,0,0,0,0,0,11.0699996948,0,0,0,0,323309327
1537212210.6905,69810.7053564,69810.7053564,260,2018,2,55,1,73,1,6,4294967296,0,0,0,0,0,0,0,0,0,0,0,0,0,0,0.00285,0.00046,0,10.5900001526,3.5399999619,0,0,0,0,0,0,18.4699993134,11.1599998474,0,0,0,0,0,0,18.4699993134,0,0,0.3300000131,0,0,0,0,0,0,0,0,0,0,0,0,11.1599998474,0,0,0,0,3933762748
1537212210.6905,69810.7053564,69810.7053564,260,2018,2,55,1,73,1,6,4294967296,0,0,0,0,0,0,0,0,0,0,0,0,0,0,0.00285,0.00046,0,10.5900001526,3.5399999619,0,0,0,0,0,0,18.4699993134,11.1599998474,0,0,0,0,0,0,18.4699993134,0,0,0.3300000131,0,0,0,0,0,0,0,0,0,0,0,0,11.1599998474,0,0,0,0,3933762748
1537212211.6889,69811.7037581,69811.7037581,260,2018,2,55,1,74,1,6,4294967296,0,0,0,0,0,0,0,0,0,0,0,0,0,0,0.00289,0.00047,0,10.6499996185,3.6099998951,0,0,0,0,0,0,18.7399997711,11.25,0,0,0,0,0,0,18.7399997711,0,0,0.3400000036,0,0,0,0,0,0,0,0,0,0,0,0,11.25,0,0,0,0,1608448824
1537212211.689,69811.7037581,69811.7037581,260,2018,2,55,1,74,1,6,4294967296,0,0,0,0,0,0,0,0,0,0,0,0,0,0,0.00289,0.00047,0,10.6499996185,3.6099998951,0,0,0,0,0,0,18.7399997711,11.25,0,0,0,0,0,0,18.7399997711,0,0,0.3400000036,0,0,0,0,0,0,0,0,0,0,0,0,11.25,0,0,0,0,1608448824
1537212212.6874,69812.7021599,69812.7021599,260,2018,2,55,1,75,1,6,4294967296,0,0,0,0,0,0,0,0,0,0,0,0,0,0,0.00294,0.00049,0,10.720000267,3.6900000572,0,0,0,0,0,0,19.0100002289,11.3400001526,0,0,0,0,0,0,19.0100002289,0,0,0.3400000036,0,0,0,0,0,0,0,0,0,0,0,0,11.3400001526,0,0,0,0,977532453
1537212212.6874,69812.7021599,69812.7021599,260,2018,2,55,1,75,1,6,4294967296,0,0,0,0,0,0,0,0,0,0,0,0,0,0,0.00294,0.00049,0,10.720000267,3.6900000572,0,0,0,0,0,0,19.0100002289,11.3400001526,0,0,0,0,0,0,19.0100002289,0,0,0.3400000036,0,0,0,0,0,0,0,0,0,0,0,0,11.3400001526,0,0,0,0,977532453
1537212213.6857,69813.7005616,69813.7005616,260,2018,2,55,1,76,1,6,4294967296,0,0,0,0,0,0,0,0,0,0,0,0,0,0,0.00298,0.0005,0,10.7899999619,3.7699999809,0,0,0,0,0,0,19.2800006866,11.4300003052,0,0,0,0,0,0,19.2800006866,0,0,0.3400000036,0,0,0,0,0,0,0,0,0,0,0,0,11.4300003052,0,0,0,0,3649194287
1537212213.6857,69813.7005616,69813.7005616,260,2018,2,55,1,76,1,6,4294967296,0,0,0,0,0,0,0,0,0,0,0,0,0,0,0.00298,0.0005,0,10.7899999619,3.7699999809,0,0,0,0,0,0,19.2800006866,11.4300003052,0,0,0,0,0,0,19.2800006866,0,0,0.3400000036,0,0,0,0,0,0,0,0,0,0,0,0,11.4300003052,0,0,0,0,3649194287
1537212214.6997,69814.7145634,69814.7145634,260,2018,2,55,1,77,1,6,4294967296,0,0,0,0,0,0,0,0,0,0,0,0,0,0,0.00303,0.00052,0,10.8599996567,3.8499999046,0,0,0,0,0,0,19.5499992371,11.5200004578,0,0,0,0,0,0,19.5499992371,0,0,0.349999994,0,0,0,0,0,0,0,0,0,0,0,0,11.5200004578,0,0,0,0,2218679488
1537212214.6997,69814.7145634,69814.7145634,260,2018,2,55,1,77,1,6,4294967296,0,0,0,0,0,0,0,0,0,0,0,0,0,0,0.00303,0.00052,0,10.8599996567,3.8499999046,0,0,0,0,0,0,19.5499992371,11.5200004578,0,0,0,0,0,0,19.5499992371,0,0,0.349999994,0,0,0,0,0,0,0,0,0,0,0,0,11.5200004578,0,0,0,0,2218679488
1537212215.6981,69815.7129652,69815.7129652,260,2018,2,55,1,78,1,6,4294967296,0,0,0,0,0,0,0,0,0,0,0,0,0,0,0.00308,0.00054,0,10.9300003052,3.9500000477,0,0,0,0,0,0,19.8500003815,11.6199998856,0,0,0,0,0,0,19.8500003815,0,0,0.349999994,0,0,0,0,0,0,0,0,0,0,0,0,11.6199998856,0,0,0,0,2938885088
1537212215.6981,69815.7129652,69815.7129652,260,2018,2,55,1,78,1,6,4294967296,0,0,0,0,0,0,0,0,0,0,0,0,0,0,0.00308,0.00054,0,10.9300003052,3.9500000477,0,0,0,0,0,0,19.8500003815,11.6199998856,0,0,0,0,0,0,19.8500003815,0,0,0.349999994,0,0,0,0,0,0,0,0,0,0,0,0,11.6199998856,0,0,0,0,2938885088
1537212216.6965,69816.7113669,69816.7113669,260,2018,2,55,1,79,1,6,4294967296,0,0,0,0,0,0,0,0,0,0,0,0,0,0,0.00312,0.00055,0,10.9899997711,4.0399999619,0,0,0,0,0,0,20.1599998474,11.7100000381,0,0,0,0,0,0,20.1599998474,0,0,0.349999994,0,0,0,0,0,0,0,0,0,0,0,0,11.7100000381,0,0,0,0,1315569139
1537212216.6966,69816.7113669,69816.7113669,260,2018,2,55,1,79,1,6,4294967296,0,0,0,0,0,0,0,0,0,0,0,0,0,0,0.00312,0.00055,0,10.9899997711,4.0399999619,0,0,0,0,0,0,20.1599998474,11.7100000381,0,0,0,0,0,0,20.1599998474,0,0,0.349999994,0,0,0,0,0,0,0,0,0,0,0,0,11.7100000381,0,0,0,0,1315569139
1537212217.6949,69817.7097687,69817.7097687,260,2018,2,55,1,80,1,6,4294967296,0,0,0,0,0,0,0,0,0,0,0,0,0,0,0.00317,0.00057,0,11.0500001907,4.1399998665,0,0,0,0,0,0,20.5200004578,11.8000001907,0,0,0,0,0,0,20.5200004578,0,0,0.349999994,0,0,0,0,0,0,0,0,0,0,0,0,11.8000001907,0,0,0,0,2035596477
1537212217.6949,69817.7097687,69817.7097687,260,2018,2,55,1,80,1,6,4294967296,0,0,0,0,0,0,0,0,0,0,0,0,0,0,0.00317,0.00057,0,11.0500001907,4.1399998665,0,0,0,0,0,0,20.5200004578,11.8000001907,0,0,0,0,0,0,20.5200004578,0,0,0.349999994,0,0,0,0,0,0,0,0,0,0,0,0,11.8000001907,0,0,0,0,2035596477
1537212218.6933,69818.7081704,69818.7081704,260,2018,2,55,1,81,1,6,4294967296,0,0,0,0,0,0,0,0,0,0,0,0,0,0,0.00321,0.00059,0,11.1099996567,4.2399997711,0,0,0,0,0,0,20.8799991608,11.8900003433,0,0,0,0,0,0,20.8799991608,0,0,0.3600000143,0,0,0,0,0,0,0,0,0,0,0,0,11.8900003433,0,0,0,0,4005260336
1537212218.6933,69818.7081704,69818.7081704,260,2018,2,55,1,81,1,6,4294967296,0,0,0,0,0,0,0,0,0,0,0,0,0,0,0.00321,0.00059,0,11.1099996567,4.2399997711,0,0,0,0,0,0,20.8799991608,11.8900003433,0,0,0,0,0,0,20.8799991608,0,0,0.3600000143,0,0,0,0,0,0,0,0,0,0,0,0,11.8900003433,0,0,0,0,4005260336
1537212219.6917,69819.7065722,69819.7065722,260,2018,2,55,1,82,1,6,4294967296,0,0,0,0,0,0,0,0,0,0,0,0,0,0,0.00326,0.00061,0,11.1700000763,4.3400001526,0,0,0,0,0,0,21.2399997711,11.9799995422,0,0,0,0,0,0,21.2399997711,0,0,0.3600000143,0,0,0,0,0,0,0,0,0,0,0,0,11.9799995422,0,0,0,0,430320378
1537212219.6917,69819.7065722,69819.7065722,260,2018,2,55,1,82,1,6,4294967296,0,0,0,0,0,0,0,0,0,0,0,0,0,0,0.00326,0.00061,0,11.1700000763,4.3400001526,0,0,0,0,0,0,21.2399997711,11.9799995422,0,0,0,0,0,0,21.2399997711,0,0,0.3600000143,0,0,0,0,0,0,0,0,0,0,0,0,11.9799995422,0,0,0,0,430320378
1537212220.6901,69820.7049739,69820.7049739,260,2018,2,55,1,83,1,6,4294967296,0,0,0,0,0,0,0,0,0,0,0,0,0,0,0.00331,0.00063,0,11.220000267,4.4400000572,0,0,0,0,0,0,21.6000003815,12.0699996948,0,0,0,0,0,0,21.6000003815,0,0,0.3600000143,0,0,0,0,0,0,0,0,0,0,0,0,12.0699996948,0,0,0,0,1150323487
1537212220.6901,69820.7049739,69820.7049739,260,2018,2,55,1,83,1,6,4294967296,0,0,0,0,0,0,0,0,0,0,0,0,0,0,0.00331,0.00063,0,11.220000267,4.4400000572,0,0,0,0,0,0,21.6000003815,12.0699996948,0,0,0,0,0,0,21.6000003815,0,0,0.3600000143,0,0,0,0,0,0,0,0,0,0,0,0,12.0699996948,0,0,0,0,1150323487
1537212221.6885,69821.7033757,69821.7033757,260,2018,2,55,1,84,1,6,4294967296,0,0,0,0,0,0,0,0,0,0,0,0,0,0,0.00336,0.00064,0,11.279999733,4.5500001907,0,0,0,0,0,0,21.9599990845,12.1599998474,0,0,0,0,0,0,21.9599990845,0,0,0.3600000143,0,0,0,0,0,0,0,0,0,0,0,0,12.1599998474,0,0,0,0,2572663376
1537212221.6885,69821.7033757,69821.7033757,260,2018,2,55,1,84,1,6,4294967296,0,0,0,0,0,0,0,0,0,0,0,0,0,0,0.00336,0.00064,0,11.279999733,4.5500001907,0,0,0,0,0,0,21.9599990845,12.1599998474,0,0,0,0,0,0,21.9599990845,0,0,0.3600000143,0,0,0,0,0,0,0,0,0,0,0,0,12.1599998474,0,0,0,0,2572663376
1537212222.6869,69822.7017774,69822.7017774,260,2018,2,55,1,85,1,6,4294967296,0,0,0,0,0,0,0,0,0,0,0,0,0,0,0.00341,0.00067,0,11.3400001526,4.6599998474,0,0,0,0,0,0,22.3600006104,12.2600002289,0,0,0,0,0,0,22.3600006104,0,0,0.3700000048,0,0,0,0,0,0,0,0,0,0,0,0,12.2600002289,0,0,0,0,2590804824
1537212222.687,69822.7017774,69822.7017774,260,2018,2,55,1,85,1,6,4294967296,0,0,0,0,0,0,0,0,0,0,0,0,0,0,0.00341,0.00067,0,11.3400001526,4.6599998474,0,0,0,0,0,0,22.3600006104,12.2600002289,0,0,0,0,0,0,22.3600006104,0,0,0.3700000048,0,0,0,0,0,0,0,0,0,0,0,0,12.2600002289,0,0,0,0,2590804824
1537212223.6853,69823.7001792,69823.7001792,260,2018,2,55,1,86,1,6,4294967296,0,0,0,0,0,0,0,0,0,0,0,0,0,0,0.00346,0.00069,0,11.3900003433,4.7699999809,0,0,0,0,0,0,22.7199993134,12.3500003815,0,0,0,0,0,0,22.7199993134,0,0,0.3700000048,0,0,0,0,0,0,0,0,0,0,0,0,12.3500003815,0,0,0,0,3310842647
1537212223.6853,69823.7001792,69823.7001792,260,2018,2,55,1,86,1,6,4294967296,0,0,0,0,0,0,0,0,0,0,0,0,0,0,0.00346,0.00069,0,11.3900003433,4.7699999809,0,0,0,0,0,0,22.7199993134,12.3500003815,0,0,0,0,0,0,22.7199993134,0,0,0.3700000048,0,0,0,0,0,0,0,0,0,0,0,0,12.3500003815,0,0,0,0,3310842647
1537212224.6995,69824.714181,69824.714181,260,2018,2,55,1,87,1,6,4294967296,0,0,0,0,0,0,0,0,0,0,0,0,0,0,0.0035,0.00071,0,11.4399995804,4.8800001144,0,0,0,0,0,0,23.0799999237,12.4399995804,0,0,0,0,0,0,23.0799999237,0,0,0.3700000048,0,0,0,0,0,0,0,0,0,0,0,0,12.4399995804,0,0,0,0,3129275569
1537212224.6995,69824.714181,69824.714181,260,2018,2,55,1,87,1,6,4294967296,0,0,0,0,0,0,0,0,0,0,0,0,0,0,0.0035,0.00071,0,11.4399995804,4.8800001144,0,0,0,0,0,0,23.0799999237,12.4399995804,0,0,0,0,0,0,23.0799999237,0,0,0.3700000048,0,0,0,0,0,0,0,0,0,0,0,0,12.4399995804,0,0,0,0,3129275569
1537212225.6855,69825.7004357,69825.7004357,260,2018,2,55,1,88,1,6,4294967296,0,0,0,0,0,0,0,0,0,0,0,0,0,0,0.00355,0.00073,0,11.5,4.9800000191,0,0,0,0,0,0,23.4400005341,12.529999733,0,0,0,0,0,0,23.4400005341,0,0,0.3799999952,0,0,0,0,0,0,0,0,0,0,0,0,12.529999733,0,0,0,0,2180153740
1537212225.6856,69825.7004357,69825.7004357,260,2018,2,55,1,88,1,6,4294967296,0,0,0,0,0,0,0,0,0,0,0,0,0,0,0.00355,0.00073,0,11.5,4.9800000191,0,0,0,0,0,0,23.4400005341,12.529999733,0,0,0,0,0,0,23.4400005341,0,0,0.3799999952,0,0,0,0,0,0,0,0,0,0,0,0,12.529999733,0,0,0,0,2180153740
1537212226.6856,69826.7004929,69826.7004929,260,2018,2,55,1,89,1,6,4294967296,0,0,0,0,0,0,0,0,0,0,0,0,0,0,0.0036,0.00075,0,11.5500001907,5.0900001526,0,0,0,0,0,0,23.7999992371,12.6199998856,0,0,0,0,0,0,23.7999992371,0,0,0.3799999952,0,0,0,0,0,0,0,0,0,0,0,0,12.6199998856,0,0,0,0,3127708007
1537212226.6856,69826.7004929,69826.7004929,260,2018,2,55,1,89,1,6,4294967296,0,0,0,0,0,0,0,0,0,0,0,0,0,0,0.0036,0.00075,0,11.5500001907,5.0900001526,0,0,0,0,0,0,23.7999992371,12.6199998856,0,0,0,0,0,0,23.7999992371,0,0,0.3799999952,0,0,0,0,0,0,0,0,0,0,0,0,12.6199998856,0,0,0,0,3127708007
1537212227.6856,69827.7005501,69827.7005501,260,2018,2,55,1,90,1,6,4294967296,0,0,0,0,0,0,0,0,0,0,0,0,0,0,0.00365,0.00077,0,11.6000003815,5.1999998093,0,0,0,0,0,0,24.1599998474,12.7100000381,0,0,0,0,0,0,24.1599998474,0,0,0.3799999952,0,0,0,0,0,0,0,0,0,0,0,0,12.7100000381,0,0,0,0,4075262275
1537212227.6857,69827.7005501,69827.7005501,260,2018,2,55,1,90,1,6,4294967296,0,0,0,0,0,0,0,0,0,0,0,0,0,0,0.00365,0.00077,0,11.6000003815,5.1999998093,0,0,0,0,0,0,24.1599998474,12.7100000381,0,0,0,0,0,0,24.1599998474,0,0,0.3799999952,0,0,0,0,0,0,0,0,0,0,0,0,12.7100000381,0,0,0,0,4075262275
1537212228.6944,69828.7031979,69828.7031979,260,2018,2,55,1,91,1,6,4294967296,0,0,0,0,0,0,0,0,0,0,0,0,0,0,0.0037,0.00079,0,11.6499996185,5.3200001717,0,0,0,0,0,0,24.5599994659,12.8100004196,0,0,0,0,0,0,24.5599994659,0,0,0.3799999952,0,0,0,0,0,0,0,0,0,0,0,0,12.8100004196,0,0,0,0,1083982489
1537212228.6944,69828.7031979,69828.7031979,260,2018,2,55,1,91,1,6,4294967296,0,0,0,0,0,0,0,0,0,0,0,0,0,0,0.0037,0.00079,0,11.6499996185,5.3200001717,0,0,0,0,0,0,24.5599994659,12.8100004196,0,0,0,0,0,0,24.5599994659,0,0,0.3799999952,0,0,0,0,0,0,0,0,0,0,0,0,12.8100004196,0,0,0,0,1083982489
1537212229.6867,69829.7015997,69829.7015997,260,2018,2,55,1,92,1,6,4294967296,0,0,0,0,0,0,0,0,0,0,0,0,0,0,0.00375,0.00081,0,11.6999998093,5.4400000572,0,0,0,0,0,0,24.9200000763,12.8999996185,0,0,0,0,0,0,24.9200000763,0,0,0.3899999857,0,0,0,0,0,0,0,0,0,0,0,0,12.8999996185,0,0,0,0,1804376825
1537212229.6867,69829.7015997,69829.7015997,260,2018,2,55,1,92,1,6,4294967296,0,0,0,0,0,0,0,0,0,0,0,0,0,0,0.00375,0.00081,0,11.6999998093,5.4400000572,0,0,0,0,0,0,24.9200000763,12.8999996185,0,0,0,0,0,0,24.9200000763,0,0,0.3899999857,0,0,0,0,0,0,0,0,0,0,0,0,12.8999996185,0,0,0,0,1804376825
1537212230.6861,69830.7010058,69830.7010058,260,2018,2,55,1,93,1,6,4294967296,0,0,0,0,0,0,0,0,0,0,0,0,0,0,0.0038,0.00084,0,11.75,5.5500001907,0,0,0,0,0,0,25.2800006866,12.9899997711,0,0,0,0,0,0,25.2800006866,0,0,0.3899999857,0,0,0,0,0,0,0,0,0,0,0,0,12.9899997711,0,0,0,0,1960153017
1537212230.6861,69830.7010058,69830.7010058,260,2018,2,55,1,93,1,6,4294967296,0,0,0,0,0,0,0,0,0,0,0,0,0,0,0.0038,0.00084,0,11.75,5.5500001907,0,0,0,0,0,0,25.2800006866,12.9899997711,0,0,0,0,0,0,25.2800006866,0,0,0.3899999857,0,0,0,0,0,0,0,0,0,0,0,0,12.9899997711,0,0,0,0,1960153017
1537212231.6881,69831.7030199,69831.7030199,260,2018,2,55,1,94,1,6,4294967296,0,0,0,0,0,0,0,0,0,0,0,0,0,0,0.00385,0.00086,0,11.7899999619,5.6599998474,0,0,0,0,0,0,25.6399993896,13.0799999237,0,0,0,0,0,0,25.6399993896,0,0,0.3899999857,0,0,0,0,0,0,0,0,0,0,0,0,13.0799999237,0,0,0,0,3176651085
1537212231.6882,69831.7030199,69831.7030199,260,2018,2,55,1,94,1,6,4294967296,0,0,0,0,0,0,0,0,0,0,0,0,0,0,0.00385,0.00086,0,11.7899999619,5.6599998474,0,0,0,0,0,0,25.6399993896,13.0799999237,0,0,0,0,0,0,25.6399993896,0,0,0.3899999857,0,0,0,0,0,0,0,0,0,0,0,0,13.0799999237,0,0,0,0,3176651085
1537212232.6865,69832.7014216,69832.7014216,260,2018,2,55,1,95,1,6,4294967296,0,0,0,0,0,0,0,0,0,0,0,0,0,0,0.0039,0.00088,0,11.8400001526,5.7699999809,0,0,0,0,0,0,26,13.1700000763,0,0,0,0,0,0,26,0,0,0.3899999857,0,0,0,0,0,0,0,0,0,0,0,0,13.1700000763,0,0,0,0,3896675166
1537212232.6866,69832.7014216,69832.7014216,260,2018,2,55,1,95,1,6,4294967296,0,0,0,0,0,0,0,0,0,0,0,0,0,0,0.0039,0.00088,0,11.8400001526,5.7699999809,0,0,0,0,0,0,26,13.1700000763,0,0,0,0,0,0,26,0,0,0.3899999857,0,0,0,0,0,0,0,0,0,0,0,0,13.1700000763,0,0,0,0,3896675166
1537212233.7005,69833.7154234,69833.7154234,260,2018,2,55,1,96,1,6,4294967296,0,0,0,0,0,0,0,0,0,0,0,0,0,0,0.00395,0.00091,0,11.8800001144,5.8899998665,0,0,0,0,0,0,26.3600006104,13.2600002289,0,0,0,0,0,0,26.3600006104,0,0,0.400000006,0,0,0,0,0,0,0,0,0,0,0,0,13.2600002289,0,0,0,0,1543933754
1537212233.7006,69833.7154234,69833.7154234,260,2018,2,55,1,96,1,6,4294967296,0,0,0,0,0,0,0,0,0,0,0,0,0,0,0.00395,0.00091,0,11.8800001144,5.8899998665,0,0,0,0,0,0,26.3600006104,13.2600002289,0,0,0,0,0,0,26.3600006104,0,0,0.400000006,0,0,0,0,0,0,0,0,0,0,0,0,13.2600002289,0,0,0,0,1543933754
1537212234.6861,69834.7010357,69834.7010357,260,2018,2,55,1,97,1,6,4294967296,0,0,0,0,0,0,0,0,0,0,0,0,0,0,0.004,0.00094,0,11.9300003052,6.0199999809,0,0,0,0,0,0,26.7600002289,13.3599996567,0,0,0,0,0,0,26.7600002289,0,0,0.400000006,0,0,0,0,0,0,0,0,0,0,0,0,13.3599996567,0,0,0,0,779812509
1537212234.6862,69834.7010357,69834.7010357,260,2018,2,55,1,97,1,6,4294967296,0,0,0,0,0,0,0,0,0,0,0,0,0,0,0.004,0.00094,0,11.9300003052,6.0199999809,0,0,0,0,0,0,26.7600002289,13.3599996567,0,0,0,0,0,0,26.7600002289,0,0,0.400000006,0,0,0,0,0,0,0,0,0,0,0,0,13.3599996567,0,0,0,0,779812509
1537212235.6862,69835.7010929,69835.7010929,260,2018,2,55,1,98,1,6,4294967296,0,0,0,0,0,0,0,0,0,0,0,0,0,0,0.00405,0.00096,0,11.970000267,6.1300001144,0,0,0,0,0,0,27.1200008392,13.4499998093,0,0,0,0,0,0,27.1200008392,0,0,0.400000006,0,0,0,0,0,0,0,0,0,0,0,0,13.4499998093,0,0,0,0,2703159441
1537212235.6862,69835.7010929,69835.7010929,260,2018,2,55,1,98,1,6,4294967296,0,0,0,0,0,0,0,0,0,0,0,0,0,0,0.00405,0.00096,0,11.970000267,6.1300001144,0,0,0,0,0,0,27.1200008392,13.4499998093,0,0,0,0,0,0,27.1200008392,0,0,0.400000006,0,0,0,0,0,0,0,0,0,0,0,0,13.4499998093,0,0,0,0,2703159441
1537212236.6884,69836.7033398,69836.7033398,260,2018,2,55,1,99,1,6,4294967296,0,0,0,0,0,0,0,0,0,0,0,0,0,0,0.0041,0.00099,0,12.0100002289,6.25,0,0,0,0,0,0,27.4799995422,13.5399999619,0,0,0,0,0,0,27.4799995422,0,0,0.4099999964,0,0,0,0,0,0,0,0,0,0,0,0,13.5399999619,0,0,0,0,2482781026
1537212236.6885,69836.7033398,69836.7033398,260,2018,2,55,1,99,1,6,4294967296,0,0,0,0,0,0,0,0,0,0,0,0,0,0,0.0041,0.00099,0,12.0100002289,6.25,0,0,0,0,0,0,27.4799995422,13.5399999619,0,0,0,0,0,0,27.4799995422,0,0,0.4099999964,0,0,0,0,0,0,0,0,0,0,0,0,13.5399999619,0,0,0,0,2482781026
1537212237.6868,69837.7017416,69837.7017416,260,2018,2,55,1,100,1,6,4294967296,0,0,0,0,0,0,0,0,0,0,0,0,0,0,0.00415,0.00101,0,12.0500001907,6.3699998856,0,0,0,0,0,0,27.8400001526,13.6300001144,0,0,0,0,0,0,27.8400001526,0,0,0.4099999964,0,0,0,0,0,0,0,0,0,0,0,0,13.6300001144,0,0,0,0,585956768
1537212237.6869,69837.7017416,69837.7017416,260,2018,2,55,1,100,1,6,4294967296,0,0,0,0,0,0,0,0,0,0,0,0,0,0,0.00415,0.00101,0,12.0500001907,6.3699998856,0,0,0,0,0,0,27.8400001526,13.6300001144,0,0,0,0,0,0,27.8400001526,0,0,0.4099999964,0,0,0,0,0,0,0,0,0,0,0,0,13.6300001144,0,0,0,0,585956768
1537212238.6853,69838.7001433,69838.7001433,260,2018,2,55,1,101,1,6,4294967296,0,0,0,0,0,0,0,0,0,0,0,0,0,0,0.0042,0.00104,0,12.0900001526,6.4800000191,0,0,0,0,0,0,28.2000007629,13.720000267,0,0,0,0,0,0,28.2000007629,0,0,0.4099999964,0,0,0,0,0,0,0,0,0,0,0,0,13.720000267,0,0,0,0,485435650
1537212238.6853,69838.7001433,69838.7001433,260,2018,2,55,1,101,1,6,4294967296,0,0,0,0,0,0,0,0,0,0,0,0,0,0,0.0042,0.00104,0,12.0900001526,6.4800000191,0,0,0,0,0,0,28.2000007629,13.720000267,0,0,0,0,0,0,28.2000007629,0,0,0.4099999964,0,0,0,0,0,0,0,0,0,0,0,0,13.720000267,0,0,0,0,485435650
1537212239.6993,69839.7141451,69839.7141451,260,2018,2,55,1,102,1,6,4294967296,0,0,0,0,0,0,0,0,0,0,0,0,0,0,0.00426,0.00107,0,12.1300001144,6.5999999046,0,0,0,0,0,0,28.5599994659,13.8100004196,0,0,0,0,0,0,28.5599994659,0,0,0.4099999964,0,0,0,0,0,0,0,0,0,0,0,0,13.8100004196,0,0,0,0,4051823211
1537212239.6993,69839.7141451,69839.7141451,260,2018,2,55,1,102,1,6,4294967296,0,0,0,0,0,0,0,0,0,0,0,0,0,0,0.00426,0.00107,0,12.1300001144,6.5999999046,0,0,0,0,0,0,28.5599994659,13.8100004196,0,0,0,0,0,0,28.5599994659,0,0,0.4099999964,0,0,0,0,0,0,0,0,0,0,0,0,13.8100004196,0,0,0,0,4051823211
1537212240.6976,69840.7125468,69840.7125468,260,2018,2,55,1,103,1,6,4294967296,0,0,0,0,0,0,0,0,0,0,0,0,0,0,0.00431,0.0011,0,12.1700000763,6.7199997902,0,0,0,0,0,0,28.9200000763,13.8999996185,0,0,0,0,0,0,28.9200000763,0,0,0.4199999869,0,0,0,0,0,0,0,0,0,0,0,0,13.8999996185,0,0,0,0,3951658610
1537212240.6977,69840.7125468,69840.7125468,260,2018,2,55,1,103,1,6,4294967296,0,0,0,0,0,0,0,0,0,0,0,0,0,0,0.00431,0.0011,0,12.1700000763,6.7199997902,0,0,0,0,0,0,28.9200000763,13.8999996185,0,0,0,0,0,0,28.9200000763,0,0,0.4199999869,0,0,0,0,0,0,0,0,0,0,0,0,13.8999996185,0,0,0,0,3951658610
1537212241.6961,69841.7109486,69841.7109486,260,2018,2,55,1,104,1,6,4294967296,0,0,0,0,0,0,0,0,0,0,0,0,0,0,0.00436,0.00113,0,12.2100000381,6.8600001335,0,0,0,0,0,0,29.3199996948,14,0,0,0,0,0,0,29.3199996948,0,0,0.4199999869,0,0,0,0,0,0,0,0,0,0,0,0,14,0,0,0,0,3851277067
1537212241.6961,69841.7109486,69841.7109486,260,2018,2,55,1,104,1,6,4294967296,0,0,0,0,0,0,0,0,0,0,0,0,0,0,0.00436,0.00113,0,12.2100000381,6.8600001335,0,0,0,0,0,0,29.3199996948,14,0,0,0,0,0,0,29.3199996948,0,0,0.4199999869,0,0,0,0,0,0,0,0,0,0,0,0,14,0,0,0,0,3851277067
1537212242.6945,69842.7093504,69842.7093504,260,2018,2,55,1,105,1,6,4294967296,0,0,0,0,0,0,0,0,0,0,0,0,0,0,0.00441,0.00116,0,12.2399997711,6.9800000191,0,0,0,0,0,0,29.6800003052,14.0900001526,0,0,0,0,0,0,29.6800003052,0,0,0.4199999869,0,0,0,0,0,0,0,0,0,0,0,0,14.0900001526,0,0,0,0,3750780180
1537212242.6945,69842.7093504,69842.7093504,260,2018,2,55,1,105,1,6,4294967296,0,0,0,0,0,0,0,0,0,0,0,0,0,0,0.00441,0.00116,0,12.2399997711,6.9800000191,0,0,0,0,0,0,29.6800003052,14.0900001526,0,0,0,0,0,0,29.6800003052,0,0,0.4199999869,0,0,0,0,0,0,0,0,0,0,0,0,14.0900001526,0,0,0,0,3750780180
1537212243.6928,69843.7077521,69843.7077521,260,2018,2,55,1,106,1,6,4294967296,0,0,0,0,0,0,0,0,0,0,0,0,0,0,0.00447,0.00118,0,12.279999733,7.0999999046,0,0,0,0,0,0,30.0400009155,14.1800003052,0,0,0,0,0,0,30.0400009155,0,0,0.4300000072,0,0,0,0,0,0,0,0,0,0,0,0,14.1800003052,0,0,0,0,3377104012
1537212243.6929,69843.7077521,69843.7077521,260,2018,2,55,1,106,1,6,4294967296,0,0,0,0,0,0,0,0,0,0,0,0,0,0,0.00447,0.00118,0,12.279999733,7.0999999046,0,0,0,0,0,0,30.0400009155,14.1800003052,0,0,0,0,0,0,30.0400009155,0,0,0.4300000072,0,0,0,0,0,0,0,0,0,0,0,0,14.1800003052,0,0,0,0,3377104012
1537212244.6913,69844.7061539,69844.7061539,260,2018,2,55,1,107,1,6,4294967296,0,0,0,0,0,0,0,0,0,0,0,0,0,0,0.00452,0.00121,0,12.3100004196,7.2199997902,0,0,0,0,0,0,30.3999996185,14.2700004578,0,0,0,0,0,0,30.3999996185,0,0,0.4300000072,0,0,0,0,0,0,0,0,0,0,0,0,14.2700004578,0,0,0,0,3276607123
1537212244.6913,69844.7061539,69844.7061539,260,2018,2,55,1,107,1,6,4294967296,0,0,0,0,0,0,0,0,0,0,0,0,0,0,0.00452,0.00121,0,12.3100004196,7.2199997902,0,0,0,0,0,0,30.3999996185,14.2700004578,0,0,0,0,0,0,30.3999996185,0,0,0.4300000072,0,0,0,0,0,0,0,0,0,0,0,0,14.2700004578,0,0,0,0,3276607123
1537212245.6897,69845.7045556,69845.7045556,260,2018,2,55,1,108,1,6,4294967296,0,0,0,0,0,0,0,0,0,0,0,0,0,0,0.00457,0.00124,0,12.3400001526,7.3400001526,0,0,0,0,0,0,30.7600002289,14.3599996567,0,0,0,0,0,0,30.7600002289,0,0,0.4300000072,0,0,0,0,0,0,0,0,0,0,0,0,14.3599996567,0,0,0,0,3176096492
1537212245.6897,69845.7045556,69845.7045556,260,2018,2,55,1,108,1,6,4294967296,0,0,0,0,0,0,0,0,0,0,0,0,0,0,0.00457,0.00124,0,12.3400001526,7.3400001526,0,0,0,0,0,0,30.7600002289,14.3599996567,0,0,0,0,0,0,30.7600002289,0,0,0.4300000072,0,0,0,0,0,0,0,0,0,0,0,0,14.3599996567,0,0,0,0,3176096492
1537212246.6881,69846.7029574,69846.7029574,260,2018,2,55,1,109,1,6,4294967296,0,0,0,0,0,0,0,0,0,0,0,0,0,0,0.00462,0.00128,0,12.3699998856,7.4699997902,0,0,0,0,0,0,31.1200008392,14.4499998093,0,0,0,0,0,0,31.1200008392,0,0,0.4300000072,0,0,0,0,0,0,0,0,0,0,0,0,14.4499998093,0,0,0,0,576991139
1537212246.6881,69846.7029574,69846.7029574,260,2018,2,55,1,109,1,6,4294967296,0,0,0,0,0,0,0,0,0,0,0,0,0,0,0.00462,0.00128,0,12.3699998856,7.4699997902,0,0,0,0,0,0,31.1200008392,14.4499998093,0,0,0,0,0,0,31.1200008392,0,0,0.4300000072,0,0,0,0,0,0,0,0,0,0,0,0,14.4499998093,0,0,0,0,576991139
1537212247.6865,69847.7013591,69847.7013591,260,2018,2,55,1,110,1,6,4294967296,0,0,0,0,0,0,0,0,0,0,0,0,0,0,0.00467,0.00131,0,12.3999996185,7.5900001526,0,0,0,0,0,0,31.4799995422,14.5399999619,0,0,0,0,0,0,31.4799995422,0,0,0.4399999976,0,0,0,0,0,0,0,0,0,0,0,0,14.5399999619,0,0,0,0,476816052
1537212247.6865,69847.7013591,69847.7013591,260,2018,2,55,1,110,1,6,4294967296,0,0,0,0,0,0,0,0,0,0,0,0,0,0,0.00467,0.00131,0,12.3999996185,7.5900001526,0,0,0,0,0,0,31.4799995422,14.5399999619,0,0,0,0,0,0,31.4799995422,0,0,0.4399999976,0,0,0,0,0,0,0,0,0,0,0,0,14.5399999619,0,0,0,0,476816052
1537212248.7005,69848.7153609,69848.7153609,260,2018,2,55,1,111,1,6,4294967296,0,0,0,0,0,0,0,0,0,0,0,0,0,0,0.00473,0.00134,0,12.4300003052,7.7300000191,0,0,0,0,0,0,31.8799991608,14.6400003433,0,0,0,0,0,0,31.8799991608,0,0,0.4399999976,0,0,0,0,0,0,0,0,0,0,0,0,14.6400003433,0,0,0,0,4043297987
